$GPRMC,031353.000,A,4559.3980,N,12269.0800,W,084.97,292.15,091208,,,S*0
$GPRMC,031353.200,A,4559.3980,N,12269.0800,W,084.97,292.15,091208,,,S*0
$GPRMC,031353.400,A,4559.4090,N,12269.1100,W,092.06,291.01,091208,,,S*0
$GPRMC,031353.600,A,4559.4120,N,12269.1200,W,087.55,291.11,091208,,,S*0
$GPRMC,031353.800,A,4559.4120,N,12269.1400,W,086.93,290.66,091208,,,S*0
$GPRMC,031353.000,A,4559.4160,N,12269.1400,W,087.32,290.80,091208,,,S*0
$GPRMC,031353.200,A,4559.4180,N,12269.1500,W,088.52,290.87,091208,,,S*0
$GPRMC,031353.400,A,4559.4230,N,12269.1600,W,089.22,290.80,091208,,,S*0
$GPRMC,031353.600,A,4559.4260,N,12269.1600,W,089.33,290.97,091208,,,S*0
$GPRMC,031353.800,A,4559.4260,N,12269.1700,W,089.61,291.00,091208,,,S*0
$GPRMC,031353.000,A,4559.4300,N,12269.1900,W,090.19,291.17,091208,,,S*0
$GPRMC,031353.200,A,4559.4330,N,12269.2000,W,090.54,291.05,091208,,,S*0
$GPRMC,031353.400,A,4559.4330,N,12269.2200,W,091.07,291.30,091208,,,S*0
$GPRMC,031353.600,A,4559.4370,N,12269.2200,W,091.81,291.31,091208,,,S*0
$GPRMC,031353.800,A,4559.4400,N,12269.2200,W,092.36,291.34,091208,,,S*0
$GPRMC,031353.000,A,4559.4440,N,12269.2500,W,093.13,291.39,091208,,,S*0
$GPRMC,031353.200,A,4559.4470,N,12269.2500,W,093.46,291.36,091208,,,S*0
$GPRMC,031353.400,A,4559.4470,N,12269.2500,W,093.98,291.32,091208,,,S*0
$GPRMC,031353.600,A,4559.4470,N,12269.2700,W,094.25,291.63,091208,,,S*0
$GPRMC,031353.800,A,4559.4520,N,12269.2700,W,094.90,291.55,091208,,,S*0
$GPRMC,031353.000,A,4559.4530,N,12269.2700,W,095.70,291.62,091208,,,S*0
$GPRMC,031353.200,A,4559.4590,N,12269.2900,W,095.85,291.37,091208,,,S*0
$GPRMC,031353.400,A,4559.4600,N,12269.3000,W,096.31,291.60,091208,,,S*0
$GPRMC,031353.600,A,4559.4600,N,12269.3100,W,096.69,291.37,091208,,,S*0
$GPRMC,031353.800,A,4559.4650,N,12269.3300,W,097.10,291.34,091208,,,S*0
$GPRMC,031353.000,A,4559.4670,N,12269.3300,W,097.46,291.40,091208,,,S*0
$GPRMC,031353.200,A,4559.4730,N,12269.3400,W,098.05,291.35,091208,,,S*0
$GPRMC,031353.400,A,4559.4740,N,12269.3500,W,098.51,291.25,091208,,,S*0
$GPRMC,031353.600,A,4559.4800,N,12269.3700,W,098.84,291.10,091208,,,S*0
$GPRMC,031353.800,A,4559.4810,N,12269.3800,W,099.47,291.23,091208,,,S*0
$GPRMC,031353.000,A,4559.4810,N,12269.3800,W,099.96,291.32,091208,,,S*0
$GPRMC,031353.200,A,4559.4870,N,12269.3900,W,100.34,291.38,091208,,,S*0
$GPRMC,031353.400,A,4559.4880,N,12269.4100,W,100.72,291.17,091208,,,S*0
$GPRMC,031353.600,A,4559.4940,N,12269.4200,W,101.25,291.17,091208,,,S*0
$GPRMC,031353.800,A,4559.4950,N,12269.4300,W,101.69,291.10,091208,,,S*0
$GPRMC,031353.000,A,4559.4950,N,12269.4300,W,102.13,290.92,091208,,,S*0
$GPRMC,031353.200,A,4559.5010,N,12269.4500,W,102.67,290.77,091208,,,S*0
$GPRMC,031353.400,A,4559.5020,N,12269.4600,W,102.80,290.46,091208,,,S*0
$GPRMC,031353.600,A,4559.5080,N,12269.4700,W,103.41,291.40,091208,,,S*0
$GPRMC,031353.800,A,4559.5090,N,12269.4900,W,103.75,291.30,091208,,,S*0
$GPRMC,031353.000,A,4559.5150,N,12269.4900,W,104.09,291.28,091208,,,S*0
$GPRMC,031353.200,A,4559.5160,N,12269.5000,W,104.57,291.24,091208,,,S*0
$GPRMC,031353.400,A,4559.5210,N,12269.5100,W,105.12,291.34,091208,,,S*0
$GPRMC,031353.600,A,4559.5230,N,12269.5300,W,105.30,291.34,091208,,,S*0
$GPRMC,031353.800,A,4559.5230,N,12269.5400,W,105.58,291.11,091208,,,S*0
$GPRMC,031353.000,A,4559.5290,N,12269.5400,W,106.03,291.16,091208,,,S*0
$GPRMC,031353.200,A,4559.5300,N,12269.5600,W,106.51,290.93,091208,,,S*0
$GPRMC,031353.400,A,4559.5360,N,12269.5700,W,106.90,291.08,091208,,,S*0
$GPRMC,031353.600,A,4559.5360,N,12269.5800,W,107.18,291.06,091208,,,S*0
$GPRMC,031353.800,A,4559.5420,N,12269.6000,W,107.47,291.33,091208,,,S*0
$GPRMC,031353.000,A,4559.5430,N,12269.6100,W,107.97,291.25,091208,,,S*0
$GPRMC,031353.200,A,4559.5490,N,12269.6200,W,108.18,291.25,091208,,,S*0
$GPRMC,031353.400,A,4559.5500,N,12269.6200,W,108.66,291.40,091208,,,S*0
$GPRMC,031353.600,A,4559.5550,N,12269.6400,W,108.74,291.13,091208,,,S*0
$GPRMC,031353.800,A,4559.5560,N,12269.6500,W,109.12,291.24,091208,,,S*0
$GPRMC,031353.000,A,4559.5620,N,12269.6600,W,109.23,291.17,091208,,,S*0
$GPRMC,031353.200,A,4559.5630,N,12269.6800,W,109.49,291.32,091208,,,S*0
$GPRMC,031353.400,A,4559.5690,N,12269.6900,W,109.95,291.49,091208,,,S*0
$GPRMC,031353.600,A,4559.5700,N,12269.7100,W,110.19,291.52,091208,,,S*0
$GPRMC,031353.800,A,4559.5750,N,12269.7100,W,110.19,291.30,091208,,,S*0
$GPRMC,031353.000,A,4559.5760,N,12269.7200,W,110.44,291.19,091208,,,S*0
$GPRMC,031353.200,A,4559.5760,N,12269.7300,W,110.81,291.35,091208,,,S*0
$GPRMC,031353.400,A,4559.5820,N,12269.7400,W,111.12,291.49,091208,,,S*0
$GPRMC,031353.600,A,4559.5830,N,12269.7600,W,111.35,291.40,091208,,,S*0
$GPRMC,031353.800,A,4559.5880,N,12269.7700,W,111.89,291.55,091208,,,S*0
$GPRMC,031353.000,A,4559.5890,N,12269.7900,W,111.87,291.48,091208,,,S*0
$GPRMC,031353.200,A,4559.5950,N,12269.7900,W,111.81,291.35,091208,,,S*0
$GPRMC,031353.400,A,4559.5970,N,12269.8000,W,112.26,291.46,091208,,,S*0
$GPRMC,031353.600,A,4559.6020,N,12269.8200,W,112.57,291.39,091208,,,S*0
$GPRMC,031353.800,A,4559.6040,N,12269.8300,W,112.67,290.89,091208,,,S*0
$GPRMC,031353.000,A,4559.6090,N,12269.8400,W,112.81,290.68,091208,,,S*0
$GPRMC,031353.200,A,4559.6100,N,12269.8600,W,113.15,290.64,091208,,,S*0
$GPRMC,031353.400,A,4559.6160,N,12269.8700,W,113.50,291.11,091208,,,S*0
$GPRMC,031353.600,A,4559.6170,N,12269.8700,W,113.77,291.27,091208,,,S*0
$GPRMC,031353.800,A,4559.6230,N,12269.8800,W,113.87,291.26,091208,,,S*0
$GPRMC,031353.000,A,4559.6240,N,12269.9000,W,114.24,291.26,091208,,,S*0
$GPRMC,031353.200,A,4559.6300,N,12269.9100,W,114.05,291.01,091208,,,S*0
$GPRMC,031353.400,A,4559.6310,N,12269.9200,W,114.37,290.93,091208,,,S*0
$GPRMC,031353.600,A,4559.6360,N,12269.9400,W,114.36,291.31,091208,,,S*0
$GPRMC,031353.800,A,4559.6370,N,12269.9500,W,114.88,291.36,091208,,,S*0
$GPRMC,031353.000,A,4559.6430,N,12269.9700,W,114.69,291.13,091208,,,S*0
$GPRMC,031353.200,A,4559.6440,N,12269.9800,W,115.09,290.93,091208,,,S*0
$GPRMC,031353.400,A,4559.6500,N,12269.9900,W,115.09,290.82,091208,,,S*0
$GPRMC,031353.600,A,4559.6520,N,12270.0100,W,114.73,290.65,091208,,,S*0
$GPRMC,031353.800,A,4559.6520,N,12270.0100,W,114.43,290.40,091208,,,S*0
$GPRMC,031353.000,A,4559.6570,N,12270.0200,W,114.50,290.55,091208,,,S*0
$GPRMC,031353.200,A,4559.6590,N,12270.0300,W,114.16,290.43,091208,,,S*0
$GPRMC,031353.400,A,4559.6640,N,12270.0500,W,114.07,290.49,091208,,,S*0
$GPRMC,031353.600,A,4559.6660,N,12270.0600,W,113.64,290.51,091208,,,S*0
$GPRMC,031353.800,A,4559.6710,N,12270.0700,W,113.43,290.58,091208,,,S*0
$GPRMC,031353.000,A,4559.6720,N,12270.0900,W,113.31,290.60,091208,,,S*0
$GPRMC,031353.200,A,4559.6780,N,12270.1000,W,112.90,290.59,091208,,,S*0
$GPRMC,031353.400,A,4559.6790,N,12270.1200,W,112.61,290.63,091208,,,S*0
$GPRMC,031353.600,A,4559.6850,N,12270.1200,W,111.27,290.82,091208,,,S*0
$GPRMC,031353.800,A,4559.6860,N,12270.1300,W,107.82,291.08,091208,,,S*0
$GPRMC,031353.000,A,4559.6860,N,12270.1500,W,104.58,291.57,091208,,,S*0
$GPRMC,031353.200,A,4559.6920,N,12270.1600,W,101.28,291.67,091208,,,S*0
$GPRMC,031353.400,A,4559.6940,N,12270.1700,W,099.06,291.94,091208,,,S*0
$GPRMC,031353.600,A,4559.6990,N,12270.1700,W,096.26,292.03,091208,,,S*0
$GPRMC,031353.800,A,4559.7010,N,12270.1900,W,092.98,292.06,091208,,,S*0
$GPRMC,031353.000,A,4559.7010,N,12270.2000,W,088.90,291.88,091208,,,S*0
$GPRMC,031353.200,A,4559.7060,N,12270.2000,W,085.24,291.58,091208,,,S*0
$GPRMC,031353.400,A,4559.7080,N,12270.2100,W,081.45,291.54,091208,,,S*0
$GPRMC,031353.600,A,4559.7080,N,12270.2300,W,077.67,291.95,091208,,,S*0
$GPRMC,031353.800,A,4559.7130,N,12270.2300,W,074.74,293.24,091208,,,S*0
$GPRMC,031353.000,A,4559.7150,N,12270.2300,W,072.35,294.15,091208,,,S*0
$GPRMC,031353.200,A,4559.7150,N,12270.2400,W,069.38,294.81,091208,,,S*0
$GPRMC,031353.400,A,4559.7200,N,12270.2600,W,067.96,297.03,091208,,,S*0
$GPRMC,031353.600,A,4559.7220,N,12270.2600,W,067.66,300.74,091208,,,S*0
$GPRMC,031353.800,A,4559.7270,N,12270.2600,W,067.70,304.44,091208,,,S*0
$GPRMC,031353.000,A,4559.7290,N,12270.2700,W,067.32,308.48,091208,,,S*0
$GPRMC,031353.200,A,4559.7340,N,12270.2900,W,066.93,312.71,091208,,,S*0
$GPRMC,031353.400,A,4559.7350,N,12270.2900,W,066.93,318.04,091208,,,S*0
$GPRMC,031353.600,A,4559.7410,N,12270.2900,W,066.62,323.14,091208,,,S*0
$GPRMC,031353.800,A,4559.7480,N,12270.2900,W,066.44,327.42,091208,,,S*0
$GPRMC,031353.000,A,4559.7490,N,12270.2900,W,065.96,331.68,091208,,,S*0
$GPRMC,031353.200,A,4559.7540,N,12270.3000,W,066.74,336.70,091208,,,S*0
$GPRMC,031353.400,A,4559.7610,N,12270.3100,W,066.89,341.49,091208,,,S*0
$GPRMC,031353.600,A,4559.7680,N,12270.3100,W,067.07,346.21,091208,,,S*0
$GPRMC,031353.800,A,4559.7740,N,12270.3100,W,068.39,348.46,091208,,,S*0
$GPRMC,031353.000,A,4559.7810,N,12270.3100,W,069.66,349.30,091208,,,S*0
$GPRMC,031353.200,A,4559.7830,N,12270.3100,W,070.09,352.23,091208,,,S*0
$GPRMC,031353.400,A,4559.7890,N,12270.3100,W,070.48,355.47,091208,,,S*0
$GPRMC,031353.600,A,4559.7950,N,12270.3100,W,070.71,359.05,091208,,,S*0
$GPRMC,031353.800,A,4559.8020,N,12270.3100,W,070.85,003.61,091208,,,S*0
$GPRMC,031353.000,A,4559.8090,N,12270.3100,W,071.36,007.37,091208,,,S*0
$GPRMC,031353.200,A,4559.8100,N,12270.3100,W,071.38,011.80,091208,,,S*0
$GPRMC,031353.400,A,4559.8160,N,12270.3100,W,071.27,015.31,091208,,,S*0
$GPRMC,031353.600,A,4559.8230,N,12270.3100,W,071.80,019.77,091208,,,S*0
$GPRMC,031353.800,A,4559.8300,N,12270.3000,W,072.04,024.51,091208,,,S*0
$GPRMC,031353.000,A,4559.8310,N,12270.2900,W,072.21,028.79,091208,,,S*0
$GPRMC,031353.200,A,4559.8370,N,12270.2900,W,072.94,032.68,091208,,,S*0
$GPRMC,031353.400,A,4559.8440,N,12270.2900,W,073.30,036.05,091208,,,S*0
$GPRMC,031353.600,A,4559.8450,N,12270.2900,W,073.34,039.65,091208,,,S*0
$GPRMC,031353.800,A,4559.8510,N,12270.2900,W,072.82,043.29,091208,,,S*0
$GPRMC,031353.000,A,4559.8580,N,12270.2700,W,070.72,045.73,091208,,,S*0
$GPRMC,031353.200,A,4559.8590,N,12270.2600,W,068.92,048.23,091208,,,S*0
$GPRMC,031353.400,A,4559.8640,N,12270.2600,W,067.60,051.38,091208,,,S*0
$GPRMC,031353.600,A,4559.8650,N,12270.2600,W,065.80,055.12,091208,,,S*0
$GPRMC,031353.800,A,4559.8650,N,12270.2400,W,063.85,057.91,091208,,,S*0
$GPRMC,031353.000,A,4559.8710,N,12270.2300,W,062.71,060.29,091208,,,S*0
$GPRMC,031353.200,A,4559.8720,N,12270.2300,W,062.11,064.28,091208,,,S*0
$GPRMC,031353.400,A,4559.8720,N,12270.2300,W,062.12,069.30,091208,,,S*0
$GPRMC,031353.600,A,4559.8720,N,12270.2300,W,062.33,074.56,091208,,,S*0
$GPRMC,031353.800,A,4559.8720,N,12270.2100,W,062.73,079.95,091208,,,S*0
$GPRMC,031353.000,A,4559.8720,N,12270.2000,W,063.14,084.40,091208,,,S*0
$GPRMC,031353.200,A,4559.8720,N,12270.2000,W,063.35,088.46,091208,,,S*0
$GPRMC,031353.400,A,4559.8720,N,12270.2000,W,063.67,092.53,091208,,,S*0
$GPRMC,031353.600,A,4559.8720,N,12270.1900,W,064.31,096.59,091208,,,S*0
$GPRMC,031353.800,A,4559.8720,N,12270.1700,W,064.90,101.28,091208,,,S*0
$GPRMC,031353.000,A,4559.8720,N,12270.1700,W,065.06,105.26,091208,,,S*0
$GPRMC,031353.200,A,4559.8660,N,12270.1700,W,064.96,109.02,091208,,,S*0
$GPRMC,031353.400,A,4559.8650,N,12270.1600,W,064.85,113.32,091208,,,S*0
$GPRMC,031353.600,A,4559.8590,N,12270.1500,W,064.85,118.47,091208,,,S*0
$GPRMC,031353.800,A,4559.8580,N,12270.1500,W,065.44,123.84,091208,,,S*0
$GPRMC,031353.000,A,4559.8530,N,12270.1500,W,065.77,128.79,091208,,,S*0
$GPRMC,031353.200,A,4559.8510,N,12270.1300,W,066.22,132.84,091208,,,S*0
$GPRMC,031353.400,A,4559.8460,N,12270.1200,W,066.73,136.92,091208,,,S*0
$GPRMC,031353.600,A,4559.8390,N,12270.1200,W,067.06,141.21,091208,,,S*0
$GPRMC,031353.800,A,4559.8370,N,12270.1200,W,067.87,145.56,091208,,,S*0
$GPRMC,031353.000,A,4559.8320,N,12270.1200,W,068.65,148.99,091208,,,S*0
$GPRMC,031353.200,A,4559.8250,N,12270.1200,W,068.90,150.35,091208,,,S*0
$GPRMC,031353.400,A,4559.8240,N,12270.1000,W,068.72,149.66,091208,,,S*0
$GPRMC,031353.600,A,4559.8180,N,12270.0900,W,066.80,147.74,091208,,,S*0
$GPRMC,031353.800,A,4559.8110,N,12270.0900,W,064.94,145.66,091208,,,S*0
$GPRMC,031353.000,A,4559.8100,N,12270.0900,W,063.40,142.81,091208,,,S*0
$GPRMC,031353.200,A,4559.8050,N,12270.0900,W,062.30,139.01,091208,,,S*0
$GPRMC,031353.400,A,4559.8040,N,12270.0900,W,061.14,134.92,091208,,,S*0
$GPRMC,031353.600,A,4559.7970,N,12270.0800,W,060.12,130.34,091208,,,S*0
$GPRMC,031353.800,A,4559.7960,N,12270.0700,W,059.52,125.36,091208,,,S*0
$GPRMC,031353.000,A,4559.7960,N,12270.0700,W,058.73,120.33,091208,,,S*0
$GPRMC,031353.200,A,4559.7960,N,12270.0700,W,058.22,114.33,091208,,,S*0
$GPRMC,031353.400,A,4559.7960,N,12270.0500,W,058.55,108.99,091208,,,S*0
$GPRMC,031353.600,A,4559.7900,N,12270.0400,W,058.63,104.09,091208,,,S*0
$GPRMC,031353.800,A,4559.7890,N,12270.0400,W,058.65,098.65,091208,,,S*0
$GPRMC,031353.000,A,4559.7940,N,12270.0400,W,058.76,093.56,091208,,,S*0
$GPRMC,031353.200,A,4559.7950,N,12270.0300,W,058.93,088.78,091208,,,S*0
$GPRMC,031353.400,A,4559.7950,N,12270.0100,W,058.88,084.04,091208,,,S*0
$GPRMC,031353.600,A,4559.7950,N,12270.0100,W,059.09,079.44,091208,,,S*0
$GPRMC,031353.800,A,4559.7950,N,12270.0100,W,059.52,074.48,091208,,,S*0
$GPRMC,031353.000,A,4559.8010,N,12270.0100,W,059.43,070.00,091208,,,S*0
$GPRMC,031353.200,A,4559.8020,N,12270.0000,W,059.91,065.01,091208,,,S*0
$GPRMC,031353.400,A,4559.8020,N,12269.9900,W,060.05,059.85,091208,,,S*0
$GPRMC,031353.600,A,4559.8070,N,12269.9900,W,060.27,055.47,091208,,,S*0
$GPRMC,031353.800,A,4559.8140,N,12269.9900,W,060.78,051.20,091208,,,S*0
$GPRMC,031353.000,A,4559.8150,N,12269.9700,W,061.62,045.94,091208,,,S*0
$GPRMC,031353.200,A,4559.8210,N,12269.9600,W,061.78,041.50,091208,,,S*0
$GPRMC,031353.400,A,4559.8220,N,12269.9600,W,062.40,036.83,091208,,,S*0
$GPRMC,031353.600,A,4559.8280,N,12269.9600,W,062.55,033.11,091208,,,S*0
$GPRMC,031353.800,A,4559.8350,N,12269.9600,W,063.32,028.73,091208,,,S*0
$GPRMC,031353.000,A,4559.8360,N,12269.9600,W,063.73,024.67,091208,,,S*0
$GPRMC,031353.200,A,4559.8410,N,12269.9600,W,064.35,020.50,091208,,,S*0
$GPRMC,031353.400,A,4559.8480,N,12269.9500,W,064.87,016.74,091208,,,S*0
$GPRMC,031353.600,A,4559.8550,N,12269.9300,W,065.40,012.90,091208,,,S*0
$GPRMC,031353.800,A,4559.8560,N,12269.9300,W,066.21,009.73,091208,,,S*0
$GPRMC,031353.000,A,4559.8620,N,12269.9300,W,067.09,006.73,091208,,,S*0
$GPRMC,031353.200,A,4559.8690,N,12269.9300,W,068.03,003.75,091208,,,S*0
$GPRMC,031353.400,A,4559.8750,N,12269.9300,W,068.49,001.09,091208,,,S*0
$GPRMC,031353.600,A,4559.8820,N,12269.9300,W,069.11,358.36,091208,,,S*0
$GPRMC,031353.800,A,4559.8830,N,12269.9300,W,069.81,355.52,091208,,,S*0
$GPRMC,031353.000,A,4559.8890,N,12269.9300,W,070.31,352.88,091208,,,S*0
$GPRMC,031353.200,A,4559.8960,N,12269.9300,W,071.37,350.21,091208,,,S*0
$GPRMC,031353.400,A,4559.9030,N,12269.9500,W,072.34,348.77,091208,,,S*0
$GPRMC,031353.600,A,4559.9100,N,12269.9600,W,072.96,347.69,091208,,,S*0
$GPRMC,031353.800,A,4559.9170,N,12269.9600,W,073.97,347.28,091208,,,S*0
$GPRMC,031353.000,A,4559.9180,N,12269.9600,W,074.15,347.42,091208,,,S*0
$GPRMC,031353.200,A,4559.9230,N,12269.9600,W,073.21,348.29,091208,,,S*0
$GPRMC,031353.400,A,4559.9300,N,12269.9600,W,071.38,349.38,091208,,,S*0
$GPRMC,031353.600,A,4559.9370,N,12269.9600,W,068.21,350.12,091208,,,S*0
$GPRMC,031353.800,A,4559.9440,N,12269.9600,W,064.43,350.05,091208,,,S*0
$GPRMC,031353.000,A,4559.9450,N,12269.9600,W,060.86,350.39,091208,,,S*0
$GPRMC,031353.200,A,4559.9500,N,12269.9600,W,057.07,351.03,091208,,,S*0
$GPRMC,031353.400,A,4559.9510,N,12269.9600,W,053.63,352.22,091208,,,S*0
$GPRMC,031353.600,A,4559.9570,N,12269.9600,W,051.49,353.74,091208,,,S*0
$GPRMC,031353.800,A,4559.9640,N,12269.9600,W,049.89,356.60,091208,,,S*0
$GPRMC,031353.000,A,4559.9650,N,12269.9600,W,048.59,000.61,091208,,,S*0
$GPRMC,031353.200,A,4559.9710,N,12269.9600,W,048.31,006.65,091208,,,S*0
$GPRMC,031353.400,A,4559.9720,N,12269.9600,W,047.12,012.77,091208,,,S*0
$GPRMC,031353.600,A,4559.9770,N,12269.9600,W,047.17,018.37,091208,,,S*0
$GPRMC,031353.800,A,4559.9790,N,12269.9600,W,047.95,024.51,091208,,,S*0
$GPRMC,031353.000,A,4559.9840,N,12269.9600,W,047.91,030.88,091208,,,S*0
$GPRMC,031353.200,A,4559.9850,N,12269.9600,W,048.60,036.39,091208,,,S*0
$GPRMC,031353.400,A,4559.9850,N,12269.9600,W,048.44,043.22,091208,,,S*0
$GPRMC,031353.600,A,4559.9900,N,12269.9400,W,048.31,049.34,091208,,,S*0
$GPRMC,031353.800,A,4559.9910,N,12269.9300,W,048.83,055.71,091208,,,S*0
$GPRMC,031353.000,A,4559.9910,N,12269.9300,W,049.27,061.88,091208,,,S*0
$GPRMC,031353.200,A,4559.9910,N,12269.9300,W,049.88,068.34,091208,,,S*0
$GPRMC,031353.400,A,4559.9970,N,12269.9300,W,050.86,075.21,091208,,,S*0
$GPRMC,031353.600,A,4559.9990,N,12269.9200,W,051.53,081.18,091208,,,S*0
$GPRMC,031353.800,A,4559.9980,N,12269.9000,W,052.30,086.85,091208,,,S*0
$GPRMC,031353.000,A,4559.9980,N,12269.9000,W,053.22,091.88,091208,,,S*0
$GPRMC,031353.200,A,4559.9930,N,12269.9000,W,054.26,096.02,091208,,,S*0
$GPRMC,031353.400,A,4559.9910,N,12269.9000,W,055.11,099.91,091208,,,S*0
$GPRMC,031353.600,A,4559.9910,N,12269.8900,W,056.09,103.92,091208,,,S*0
$GPRMC,031353.800,A,4559.9910,N,12269.8700,W,056.56,107.41,091208,,,S*0
$GPRMC,031353.000,A,4559.9860,N,12269.8700,W,056.98,110.19,091208,,,S*0
$GPRMC,031353.200,A,4559.9840,N,12269.8700,W,058.94,112.56,091208,,,S*0
$GPRMC,031353.400,A,4559.9840,N,12269.8600,W,059.66,113.53,091208,,,S*0
$GPRMC,031353.600,A,4559.9840,N,12269.8500,W,060.71,114.34,091208,,,S*0
$GPRMC,031353.800,A,4559.9790,N,12269.8500,W,061.63,114.70,091208,,,S*0
$GPRMC,031353.000,A,4559.9780,N,12269.8500,W,062.48,114.80,091208,,,S*0
$GPRMC,031353.200,A,4559.9780,N,12269.8300,W,063.45,114.91,091208,,,S*0
$GPRMC,031353.400,A,4559.9720,N,12269.8200,W,064.58,114.96,091208,,,S*0
$GPRMC,031353.600,A,4559.9710,N,12269.8200,W,065.61,115.21,091208,,,S*0
$GPRMC,031353.800,A,4559.9710,N,12269.8200,W,066.41,114.76,091208,,,S*0
$GPRMC,031353.000,A,4559.9660,N,12269.8100,W,067.14,114.08,091208,,,S*0
$GPRMC,031353.200,A,4559.9640,N,12269.7900,W,067.69,113.23,091208,,,S*0
$GPRMC,031353.400,A,4559.9640,N,12269.7900,W,068.47,112.32,091208,,,S*0
$GPRMC,031353.600,A,4559.9580,N,12269.7900,W,069.39,111.74,091208,,,S*0
$GPRMC,031353.800,A,4559.9570,N,12269.7800,W,070.40,110.39,091208,,,S*0
$GPRMC,031353.000,A,4559.9570,N,12269.7700,W,071.19,109.20,091208,,,S*0
$GPRMC,031353.200,A,4559.9570,N,12269.7700,W,072.13,107.45,091208,,,S*0
$GPRMC,031353.400,A,4559.9510,N,12269.7700,W,072.84,105.24,091208,,,S*0
$GPRMC,031353.600,A,4559.9510,N,12269.7500,W,073.48,103.58,091208,,,S*0
$GPRMC,031353.800,A,4559.9510,N,12269.7400,W,074.33,101.75,091208,,,S*0
$GPRMC,031353.000,A,4559.9510,N,12269.7400,W,075.09,100.42,091208,,,S*0
$GPRMC,031353.200,A,4559.9510,N,12269.7300,W,075.93,098.92,091208,,,S*0
$GPRMC,031353.400,A,4559.9510,N,12269.7100,W,076.58,097.94,091208,,,S*0
$GPRMC,031353.600,A,4559.9510,N,12269.7100,W,077.22,096.81,091208,,,S*0
$GPRMC,031353.800,A,4559.9510,N,12269.7000,W,077.86,095.79,091208,,,S*0
$GPRMC,031353.000,A,4559.9510,N,12269.6900,W,078.55,095.11,091208,,,S*0
$GPRMC,031353.200,A,4559.9510,N,12269.6900,W,079.36,094.18,091208,,,S*0
$GPRMC,031353.400,A,4559.9450,N,12269.6700,W,080.09,094.16,091208,,,S*0
$GPRMC,031353.600,A,4559.9440,N,12269.6600,W,080.80,093.66,091208,,,S*0
$GPRMC,031353.800,A,4559.9440,N,12269.6600,W,081.53,093.35,091208,,,S*0
$GPRMC,031353.000,A,4559.9440,N,12269.6500,W,082.26,093.62,091208,,,S*0
$GPRMC,031353.200,A,4559.9440,N,12269.6300,W,082.73,094.76,091208,,,S*0
$GPRMC,031353.400,A,4559.9440,N,12269.6300,W,082.91,095.50,091208,,,S*0
$GPRMC,031353.600,A,4559.9440,N,12269.6200,W,084.12,096.65,091208,,,S*0
$GPRMC,031353.800,A,4559.9440,N,12269.6000,W,084.59,097.90,091208,,,S*0
$GPRMC,031353.000,A,4559.9440,N,12269.6000,W,084.95,099.30,091208,,,S*0
$GPRMC,031353.200,A,4559.9380,N,12269.5900,W,085.14,100.70,091208,,,S*0
$GPRMC,031353.400,A,4559.9370,N,12269.5800,W,085.85,102.11,091208,,,S*0
$GPRMC,031353.600,A,4559.9370,N,12269.5800,W,086.51,102.28,091208,,,S*0
$GPRMC,031353.800,A,4559.9370,N,12269.5600,W,087.16,103.37,091208,,,S*0
$GPRMC,031353.000,A,4559.9370,N,12269.5500,W,087.51,104.27,091208,,,S*0
$GPRMC,031353.200,A,4559.9310,N,12269.5500,W,088.30,105.21,091208,,,S*0
$GPRMC,031353.400,A,4559.9310,N,12269.5300,W,088.55,107.11,091208,,,S*0
$GPRMC,031353.600,A,4559.9250,N,12269.5200,W,089.39,108.42,091208,,,S*0
$GPRMC,031353.800,A,4559.9240,N,12269.5100,W,089.94,109.35,091208,,,S*0
$GPRMC,031353.000,A,4559.9240,N,12269.4900,W,090.34,110.00,091208,,,S*0
$GPRMC,031353.200,A,4559.9180,N,12269.4900,W,090.96,112.09,091208,,,S*0
$GPRMC,031353.400,A,4559.9170,N,12269.4800,W,090.97,113.46,091208,,,S*0
$GPRMC,031353.600,A,4559.9110,N,12269.4700,W,091.35,115.23,091208,,,S*0
$GPRMC,031353.800,A,4559.9100,N,12269.4700,W,092.09,116.35,091208,,,S*0
$GPRMC,031353.000,A,4559.9040,N,12269.4500,W,092.69,117.70,091208,,,S*0
$GPRMC,031353.200,A,4559.9040,N,12269.4400,W,092.61,119.46,091208,,,S*0
$GPRMC,031353.400,A,4559.8980,N,12269.4400,W,093.35,120.72,091208,,,S*0
$GPRMC,031353.600,A,4559.8910,N,12269.4300,W,093.64,121.99,091208,,,S*0
$GPRMC,031353.800,A,4559.8900,N,12269.4100,W,093.85,123.26,091208,,,S*0
$GPRMC,031353.000,A,4559.8840,N,12269.4100,W,094.73,123.60,091208,,,S*0
$GPRMC,031353.200,A,4559.8770,N,12269.4000,W,095.14,124.86,091208,,,S*0
$GPRMC,031353.400,A,4559.8760,N,12269.3900,W,095.70,125.78,091208,,,S*0
$GPRMC,031353.600,A,4559.8700,N,12269.3900,W,096.41,126.68,091208,,,S*0
$GPRMC,031353.800,A,4559.8630,N,12269.3700,W,096.68,127.80,091208,,,S*0
$GPRMC,031353.000,A,4559.8560,N,12269.3600,W,096.90,128.91,091208,,,S*0
$GPRMC,031353.200,A,4559.8560,N,12269.3600,W,097.38,129.83,091208,,,S*0
$GPRMC,031353.400,A,4559.8500,N,12269.3500,W,097.75,130.47,091208,,,S*0
$GPRMC,031353.600,A,4559.8430,N,12269.3300,W,098.02,131.45,091208,,,S*0
$GPRMC,031353.800,A,4559.8370,N,12269.3300,W,098.76,132.61,091208,,,S*0
$GPRMC,031353.000,A,4559.8350,N,12269.3200,W,099.05,133.02,091208,,,S*0
$GPRMC,031353.200,A,4559.8300,N,12269.3000,W,099.38,133.96,091208,,,S*0
$GPRMC,031353.400,A,4559.8230,N,12269.3000,W,099.87,134.97,091208,,,S*0
$GPRMC,031353.600,A,4559.8160,N,12269.3000,W,100.25,135.62,091208,,,S*0
$GPRMC,031353.800,A,4559.8090,N,12269.2900,W,100.51,136.36,091208,,,S*0
$GPRMC,031353.000,A,4559.8020,N,12269.2800,W,101.13,137.58,091208,,,S*0
$GPRMC,031353.200,A,4559.7950,N,12269.2800,W,101.86,137.64,091208,,,S*0
$GPRMC,031353.400,A,4559.7890,N,12269.2600,W,102.18,137.64,091208,,,S*0
$GPRMC,031353.600,A,4559.7880,N,12269.2500,W,102.62,137.49,091208,,,S*0
$GPRMC,031353.800,A,4559.7820,N,12269.2500,W,103.00,137.56,091208,,,S*0
$GPRMC,031353.000,A,4559.7750,N,12269.2300,W,103.46,137.83,091208,,,S*0
$GPRMC,031353.200,A,4559.7680,N,12269.2200,W,103.98,138.23,091208,,,S*0
$GPRMC,031353.400,A,4559.7610,N,12269.2200,W,104.09,138.78,091208,,,S*0
$GPRMC,031353.600,A,4559.7550,N,12269.2200,W,104.52,139.14,091208,,,S*0
$GPRMC,031353.800,A,4559.7480,N,12269.2100,W,105.26,139.40,091208,,,S*0
$GPRMC,031353.000,A,4559.7410,N,12269.1900,W,105.31,139.73,091208,,,S*0
$GPRMC,031353.200,A,4559.7340,N,12269.1900,W,105.58,140.30,091208,,,S*0
$GPRMC,031353.400,A,4559.7270,N,12269.1900,W,106.06,140.96,091208,,,S*0
$GPRMC,031353.600,A,4559.7210,N,12269.1800,W,106.14,141.56,091208,,,S*0
$GPRMC,031353.800,A,4559.7140,N,12269.1700,W,106.59,142.05,091208,,,S*0
$GPRMC,031353.000,A,4559.7070,N,12269.1700,W,107.02,142.24,091208,,,S*0
$GPRMC,031353.200,A,4559.7000,N,12269.1500,W,107.31,142.56,091208,,,S*0
$GPRMC,031353.400,A,4559.6930,N,12269.1400,W,107.51,142.71,091208,,,S*0
$GPRMC,031353.600,A,4559.6860,N,12269.1400,W,107.93,143.02,091208,,,S*0
$GPRMC,031353.800,A,4559.6800,N,12269.1400,W,108.21,143.29,091208,,,S*0
$GPRMC,031353.000,A,4559.6730,N,12269.1300,W,108.53,143.54,091208,,,S*0
$GPRMC,031353.200,A,4559.6660,N,12269.1100,W,108.91,143.94,091208,,,S*0
$GPRMC,031353.400,A,4559.6590,N,12269.1100,W,109.06,144.02,091208,,,S*0
$GPRMC,031353.600,A,4559.6520,N,12269.1000,W,109.31,143.82,091208,,,S*0
$GPRMC,031353.800,A,4559.6450,N,12269.0900,W,109.67,143.53,091208,,,S*0
$GPRMC,031353.000,A,4559.6390,N,12269.0900,W,109.91,143.39,091208,,,S*0
$GPRMC,031353.200,A,4559.6320,N,12269.0900,W,110.03,143.68,091208,,,S*0
$GPRMC,031353.400,A,4559.6250,N,12269.0700,W,109.76,143.79,091208,,,S*0
$GPRMC,031353.600,A,4559.6120,N,12269.0600,W,109.65,143.68,091208,,,S*0
$GPRMC,031353.800,A,4559.6050,N,12269.0600,W,109.59,143.66,091208,,,S*0
$GPRMC,031353.000,A,4559.5980,N,12269.0600,W,109.48,143.17,091208,,,S*0
$GPRMC,031353.200,A,4559.5910,N,12269.0400,W,108.84,142.78,091208,,,S*0
$GPRMC,031353.400,A,4559.5840,N,12269.0300,W,106.96,142.99,091208,,,S*0
$GPRMC,031353.600,A,4559.5770,N,12269.0300,W,104.45,143.12,091208,,,S*0
$GPRMC,031353.800,A,4559.5700,N,12269.0200,W,101.19,142.40,091208,,,S*0
$GPRMC,031353.000,A,4559.5630,N,12269.0100,W,098.03,141.29,091208,,,S*0
$GPRMC,031353.200,A,4559.5630,N,12269.0100,W,094.99,140.43,091208,,,S*0
$GPRMC,031353.400,A,4559.5560,N,12269.0100,W,092.65,139.18,091208,,,S*0
$GPRMC,031353.600,A,4559.5500,N,12268.9900,W,091.49,137.36,091208,,,S*0
$GPRMC,031353.800,A,4559.5490,N,12268.9800,W,090.38,134.79,091208,,,S*0
$GPRMC,031353.000,A,4559.5430,N,12268.9800,W,089.61,131.79,091208,,,S*0
$GPRMC,031353.200,A,4559.5360,N,12268.9800,W,088.41,128.91,091208,,,S*0
$GPRMC,031353.400,A,4559.5350,N,12268.9700,W,087.82,126.38,091208,,,S*0
$GPRMC,031353.600,A,4559.5350,N,12268.9500,W,087.09,122.80,091208,,,S*0
$GPRMC,031353.800,A,4559.5300,N,12268.9500,W,087.07,118.85,091208,,,S*0
$GPRMC,031353.000,A,4559.5290,N,12268.9400,W,087.73,116.10,091208,,,S*0
$GPRMC,031353.200,A,4559.5230,N,12268.9300,W,088.17,113.37,091208,,,S*0
$GPRMC,031353.400,A,4559.5220,N,12268.9100,W,088.29,111.52,091208,,,S*0
$GPRMC,031353.600,A,4559.5160,N,12268.9000,W,086.55,110.43,091208,,,S*0
$GPRMC,031353.800,A,4559.5150,N,12268.9000,W,083.10,110.84,091208,,,S*0
$GPRMC,031353.000,A,4559.5150,N,12268.9000,W,081.04,112.13,091208,,,S*0
$GPRMC,031353.200,A,4559.5090,N,12268.8900,W,079.80,114.54,091208,,,S*0
$GPRMC,031353.400,A,4559.5080,N,12268.8700,W,078.86,117.05,091208,,,S*0
$GPRMC,031353.600,A,4559.5020,N,12268.8700,W,078.08,120.19,091208,,,S*0
$GPRMC,031353.800,A,4559.5010,N,12268.8600,W,077.65,123.96,091208,,,S*0
$GPRMC,031353.000,A,4559.4960,N,12268.8400,W,076.80,127.19,091208,,,S*0
$GPRMC,031353.200,A,4559.4940,N,12268.8400,W,076.33,130.61,091208,,,S*0
$GPRMC,031353.400,A,4559.4890,N,12268.8400,W,076.84,134.70,091208,,,S*0
$GPRMC,031353.600,A,4559.4820,N,12268.8300,W,077.19,137.81,091208,,,S*0
$GPRMC,031353.800,A,4559.4810,N,12268.8200,W,077.60,141.08,091208,,,S*0
$GPRMC,031353.000,A,4559.4750,N,12268.8200,W,078.06,143.96,091208,,,S*0
$GPRMC,031353.200,A,4559.4680,N,12268.8200,W,078.10,147.14,091208,,,S*0
$GPRMC,031353.400,A,4559.4620,N,12268.8200,W,077.75,150.03,091208,,,S*0
$GPRMC,031353.600,A,4559.4550,N,12268.8200,W,076.54,152.22,091208,,,S*0
$GPRMC,031353.800,A,4559.4530,N,12268.8000,W,075.26,154.75,091208,,,S*0
$GPRMC,031353.000,A,4559.4480,N,12268.7900,W,072.62,155.91,091208,,,S*0
$GPRMC,031353.200,A,4559.4410,N,12268.7900,W,068.81,156.46,091208,,,S*0
$GPRMC,031353.400,A,4559.4340,N,12268.7900,W,065.65,157.30,091208,,,S*0
$GPRMC,031353.600,A,4559.4330,N,12268.7900,W,063.22,158.55,091208,,,S*0
$GPRMC,031353.800,A,4559.4270,N,12268.7900,W,060.80,160.20,091208,,,S*0
$GPRMC,031353.000,A,4559.4260,N,12268.7900,W,058.74,162.42,091208,,,S*0
$GPRMC,031353.200,A,4559.4210,N,12268.7900,W,057.18,166.60,091208,,,S*0
$GPRMC,031353.400,A,4559.4140,N,12268.7900,W,056.48,172.07,091208,,,S*0
$GPRMC,031353.600,A,4559.4070,N,12268.7900,W,056.42,177.46,091208,,,S*0
$GPRMC,031353.800,A,4559.4060,N,12268.7900,W,056.92,182.01,091208,,,S*0
$GPRMC,031353.000,A,4559.4010,N,12268.7900,W,057.18,187.20,091208,,,S*0
$GPRMC,031353.200,A,4559.3990,N,12268.7900,W,057.52,192.11,091208,,,S*0
$GPRMC,031353.400,A,4559.3940,N,12268.7900,W,057.88,197.21,091208,,,S*0
$GPRMC,031353.600,A,4559.3870,N,12268.7900,W,058.41,202.50,091208,,,S*0
$GPRMC,031353.800,A,4559.3850,N,12268.7900,W,058.53,207.32,091208,,,S*0
$GPRMC,031353.000,A,4559.3800,N,12268.7900,W,059.09,212.39,091208,,,S*0
$GPRMC,031353.200,A,4559.3780,N,12268.7900,W,059.45,217.26,091208,,,S*0
$GPRMC,031353.400,A,4559.3730,N,12268.8000,W,060.00,222.27,091208,,,S*0
$GPRMC,031353.600,A,4559.3720,N,12268.8200,W,060.18,227.08,091208,,,S*0
$GPRMC,031353.800,A,4559.3670,N,12268.8200,W,060.65,231.93,091208,,,S*0
$GPRMC,031353.000,A,4559.3650,N,12268.8200,W,061.32,236.59,091208,,,S*0
$GPRMC,031353.200,A,4559.3650,N,12268.8200,W,062.01,241.63,091208,,,S*0
$GPRMC,031353.400,A,4559.3650,N,12268.8300,W,062.71,245.95,091208,,,S*0
$GPRMC,031353.600,A,4559.3600,N,12268.8400,W,063.61,249.28,091208,,,S*0
$GPRMC,031353.800,A,4559.3580,N,12268.8400,W,064.01,252.31,091208,,,S*0
$GPRMC,031353.000,A,4559.3580,N,12268.8400,W,064.36,255.50,091208,,,S*0
$GPRMC,031353.200,A,4559.3580,N,12268.8600,W,065.18,258.04,091208,,,S*0
$GPRMC,031353.400,A,4559.3580,N,12268.8700,W,066.10,260.78,091208,,,S*0
$GPRMC,031353.600,A,4559.3580,N,12268.8700,W,067.01,263.71,091208,,,S*0
$GPRMC,031353.800,A,4559.3580,N,12268.8700,W,067.60,266.55,091208,,,S*0
$GPRMC,031353.000,A,4559.3580,N,12268.8800,W,068.06,268.53,091208,,,S*0
$GPRMC,031353.200,A,4559.3580,N,12268.9000,W,069.09,271.77,091208,,,S*0
$GPRMC,031353.400,A,4559.3580,N,12268.9000,W,069.81,273.94,091208,,,S*0
$GPRMC,031353.600,A,4559.3580,N,12268.9100,W,070.39,275.49,091208,,,S*0
$GPRMC,031353.800,A,4559.3580,N,12268.9300,W,071.25,277.49,091208,,,S*0
$GPRMC,031353.000,A,4559.3580,N,12268.9300,W,072.31,280.02,091208,,,S*0
$GPRMC,031353.200,A,4559.3580,N,12268.9400,W,072.93,282.21,091208,,,S*0
$GPRMC,031353.400,A,4559.3640,N,12268.9500,W,073.69,284.51,091208,,,S*0
$GPRMC,031353.600,A,4559.3650,N,12268.9500,W,074.33,287.25,091208,,,S*0
$GPRMC,031353.800,A,4559.3650,N,12268.9500,W,074.68,289.41,091208,,,S*0
$GPRMC,031353.000,A,4559.3700,N,12268.9700,W,075.82,290.78,091208,,,S*0
$GPRMC,031353.200,A,4559.3720,N,12268.9800,W,076.92,291.75,091208,,,S*0
$GPRMC,031353.400,A,4559.3720,N,12268.9800,W,078.19,292.10,091208,,,S*0
$GPRMC,031353.600,A,4559.3770,N,12268.9900,W,078.29,292.16,091208,,,S*0
$GPRMC,031353.800,A,4559.3790,N,12269.0100,W,078.73,292.13,091208,,,S*0
$GPRMC,031353.000,A,4559.3790,N,12269.0100,W,079.50,292.06,091208,,,S*0
$GPRMC,031353.200,A,4559.3840,N,12269.0200,W,080.14,291.59,091208,,,S*0
$GPRMC,031353.400,A,4559.3860,N,12269.0400,W,081.05,291.62,091208,,,S*0
$GPRMC,031353.600,A,4559.3860,N,12269.0400,W,081.72,292.18,091208,,,S*0
$GPRMC,031353.800,A,4559.3910,N,12269.0400,W,081.92,292.02,091208,,,S*0
$GPRMC,031353.000,A,4559.3920,N,12269.0500,W,082.31,292.21,091208,,,S*0
$GPRMC,031353.200,A,4559.3980,N,12269.0600,W,083.62,291.65,091208,,,S*0
$GPRMC,031353.400,A,4559.3990,N,12269.0800,W,084.18,291.60,091208,,,S*0
$GPRMC,031353.600,A,4559.3990,N,12269.0900,W,083.61,291.26,091208,,,S*0
$GPRMC,031353.800,A,4559.4040,N,12269.0900,W,083.22,291.04,091208,,,S*0
$GPRMC,031353.000,A,4559.4060,N,12269.1000,W,085.94,291.23,091208,,,S*0
$GPRMC,031353.200,A,4559.4060,N,12269.1200,W,086.82,292.23,091208,,,S*0
$GPRMC,031353.400,A,4559.4100,N,12269.1200,W,086.98,291.81,091208,,,S*0
$GPRMC,031353.600,A,4559.4120,N,12269.1300,W,087.48,291.30,091208,,,S*0
$GPRMC,031353.800,A,4559.4170,N,12269.1400,W,087.86,291.03,091208,,,S*0
$GPRMC,031353.000,A,4559.4180,N,12269.1400,W,088.84,290.97,091208,,,S*0
$GPRMC,031353.200,A,4559.4240,N,12269.1600,W,089.45,291.11,091208,,,S*0
$GPRMC,031353.400,A,4559.4260,N,12269.1700,W,090.05,291.22,091208,,,S*0
$GPRMC,031353.600,A,4559.4260,N,12269.1700,W,090.41,291.34,091208,,,S*0
$GPRMC,031353.800,A,4559.4310,N,12269.1800,W,091.00,291.44,091208,,,S*0
$GPRMC,031353.000,A,4559.4320,N,12269.2000,W,091.35,291.18,091208,,,S*0
$GPRMC,031353.200,A,4559.4380,N,12269.2000,W,092.06,291.33,091208,,,S*0
$GPRMC,031353.400,A,4559.4390,N,12269.2100,W,092.93,291.65,091208,,,S*0
$GPRMC,031353.600,A,4559.4390,N,12269.2200,W,093.39,291.33,091208,,,S*0
$GPRMC,031353.800,A,4559.4450,N,12269.2400,W,093.90,291.46,091208,,,S*0
$GPRMC,031353.000,A,4559.4460,N,12269.2500,W,094.25,291.41,091208,,,S*0
$GPRMC,031353.200,A,4559.4460,N,12269.2500,W,094.78,291.65,091208,,,S*0
$GPRMC,031353.400,A,4559.4520,N,12269.2600,W,095.35,291.65,091208,,,S*0
$GPRMC,031353.600,A,4559.4540,N,12269.2800,W,096.10,291.61,091208,,,S*0
$GPRMC,031353.800,A,4559.4590,N,12269.2800,W,096.64,291.68,091208,,,S*0
$GPRMC,031353.000,A,4559.4600,N,12269.2900,W,096.97,291.80,091208,,,S*0
$GPRMC,031353.200,A,4559.4600,N,12269.3100,W,097.57,291.64,091208,,,S*0
$GPRMC,031353.400,A,4559.4650,N,12269.3200,W,098.14,291.75,091208,,,S*0
$GPRMC,031353.600,A,4559.4670,N,12269.3300,W,098.64,291.94,091208,,,S*0
$GPRMC,031353.800,A,4559.4730,N,12269.3300,W,099.18,292.67,091208,,,S*0
$GPRMC,031353.000,A,4559.4740,N,12269.3500,W,099.59,293.07,091208,,,S*0
$GPRMC,031353.200,A,4559.4800,N,12269.3600,W,100.10,293.29,091208,,,S*0
$GPRMC,031353.400,A,4559.4810,N,12269.3600,W,100.38,293.07,091208,,,S*0
$GPRMC,031353.600,A,4559.4860,N,12269.3700,W,100.81,292.76,091208,,,S*0
$GPRMC,031353.800,A,4559.4880,N,12269.3900,W,101.60,292.97,091208,,,S*0
$GPRMC,031353.000,A,4559.4930,N,12269.4000,W,102.01,292.78,091208,,,S*0
$GPRMC,031353.200,A,4559.4940,N,12269.4200,W,102.16,292.20,091208,,,S*0
$GPRMC,031353.400,A,4559.4950,N,12269.4200,W,102.81,292.37,091208,,,S*0
$GPRMC,031353.600,A,4559.5010,N,12269.4300,W,103.24,292.89,091208,,,S*0
$GPRMC,031353.800,A,4559.5020,N,12269.4400,W,103.60,293.30,091208,,,S*0
$GPRMC,031353.000,A,4559.5070,N,12269.4600,W,103.77,293.60,091208,,,S*0
$GPRMC,031353.200,A,4559.5090,N,12269.4700,W,104.07,293.25,091208,,,S*0
$GPRMC,031353.400,A,4559.5140,N,12269.4700,W,104.66,293.00,091208,,,S*0
$GPRMC,031353.600,A,4559.5160,N,12269.4800,W,104.86,292.58,091208,,,S*0
$GPRMC,031353.800,A,4559.5210,N,12269.5000,W,105.34,292.57,091208,,,S*0
$GPRMC,031353.000,A,4559.5230,N,12269.5100,W,105.76,292.35,091208,,,S*0
$GPRMC,031353.200,A,4559.5280,N,12269.5300,W,106.27,292.21,091208,,,S*0
$GPRMC,031353.400,A,4559.5300,N,12269.5300,W,106.72,292.07,091208,,,S*0
$GPRMC,031353.600,A,4559.5350,N,12269.5400,W,106.95,292.11,091208,,,S*0
$GPRMC,031353.800,A,4559.5370,N,12269.5500,W,106.91,291.93,091208,,,S*0
$GPRMC,031353.000,A,4559.5370,N,12269.5600,W,107.21,291.81,091208,,,S*0
$GPRMC,031353.200,A,4559.5420,N,12269.5800,W,107.56,291.76,091208,,,S*0
$GPRMC,031353.400,A,4559.5440,N,12269.5900,W,107.81,291.25,091208,,,S*0
$GPRMC,031353.600,A,4559.5500,N,12269.6100,W,108.10,291.16,091208,,,S*0
$GPRMC,031353.800,A,4559.5510,N,12269.6100,W,108.47,291.50,091208,,,S*0
$GPRMC,031353.000,A,4559.5560,N,12269.6200,W,108.59,291.28,091208,,,S*0
$GPRMC,031353.200,A,4559.5580,N,12269.6300,W,108.93,291.19,091208,,,S*0
$GPRMC,031353.400,A,4559.5630,N,12269.6500,W,109.03,291.17,091208,,,S*0
$GPRMC,031353.600,A,4559.5650,N,12269.6600,W,108.70,291.00,091208,,,S*0
$GPRMC,031353.800,A,4559.5650,N,12269.6700,W,109.07,291.09,091208,,,S*0
$GPRMC,031353.000,A,4559.5700,N,12269.6900,W,109.14,291.06,091208,,,S*0
$GPRMC,031353.200,A,4559.5710,N,12269.7000,W,109.46,291.27,091208,,,S*0
$GPRMC,031353.400,A,4559.5770,N,12269.7100,W,109.60,291.24,091208,,,S*0
$GPRMC,031353.600,A,4559.5790,N,12269.7100,W,109.82,290.93,091208,,,S*0
$GPRMC,031353.800,A,4559.5840,N,12269.7200,W,110.43,290.46,091208,,,S*0
$GPRMC,031353.000,A,4559.5860,N,12269.7400,W,110.18,290.56,091208,,,S*0
$GPRMC,031353.200,A,4559.5910,N,12269.7500,W,110.21,291.10,091208,,,S*0
$GPRMC,031353.400,A,4559.5920,N,12269.7700,W,110.02,290.72,091208,,,S*0
$GPRMC,031353.600,A,4559.5970,N,12269.7800,W,110.11,290.76,091208,,,S*0
$GPRMC,031353.800,A,4559.5990,N,12269.7900,W,110.22,290.60,091208,,,S*0
$GPRMC,031353.000,A,4559.6040,N,12269.7900,W,110.17,290.65,091208,,,S*0
$GPRMC,031353.200,A,4559.6060,N,12269.8100,W,110.34,290.61,091208,,,S*0
$GPRMC,031353.400,A,4559.6060,N,12269.8200,W,110.30,290.68,091208,,,S*0
$GPRMC,031353.600,A,4559.6120,N,12269.8400,W,110.48,290.64,091208,,,S*0
$GPRMC,031353.800,A,4559.6130,N,12269.8500,W,110.43,290.62,091208,,,S*0
$GPRMC,031353.000,A,4559.6190,N,12269.8600,W,110.41,290.46,091208,,,S*0
$GPRMC,031353.200,A,4559.6210,N,12269.8800,W,110.58,290.64,091208,,,S*0
$GPRMC,031353.400,A,4559.6260,N,12269.8800,W,110.36,290.51,091208,,,S*0
$GPRMC,031353.600,A,4559.6280,N,12269.8900,W,110.36,290.53,091208,,,S*0
$GPRMC,031353.800,A,4559.6320,N,12269.9000,W,110.78,290.43,091208,,,S*0
$GPRMC,031353.000,A,4559.6340,N,12269.9200,W,110.68,290.61,091208,,,S*0
$GPRMC,031353.200,A,4559.6390,N,12269.9300,W,110.70,290.85,091208,,,S*0
$GPRMC,031353.400,A,4559.6410,N,12269.9400,W,110.62,291.03,091208,,,S*0
$GPRMC,031353.600,A,4559.6410,N,12269.9600,W,110.78,290.64,091208,,,S*0
$GPRMC,031353.800,A,4559.6460,N,12269.9600,W,110.81,290.59,091208,,,S*0
$GPRMC,031353.000,A,4559.6470,N,12269.9700,W,110.87,290.51,091208,,,S*0
$GPRMC,031353.200,A,4559.6530,N,12269.9800,W,110.89,290.17,091208,,,S*0
$GPRMC,031353.400,A,4559.6550,N,12270.0000,W,110.82,289.89,091208,,,S*0
$GPRMC,031353.600,A,4559.6600,N,12270.0100,W,111.14,290.01,091208,,,S*0
$GPRMC,031353.800,A,4559.6610,N,12270.0300,W,110.96,290.07,091208,,,S*0
$GPRMC,031353.000,A,4559.6670,N,12270.0400,W,111.30,290.28,091208,,,S*0
$GPRMC,031353.200,A,4559.6680,N,12270.0500,W,111.42,290.17,091208,,,S*0
$GPRMC,031353.400,A,4559.6680,N,12270.0700,W,111.41,290.34,091208,,,S*0
$GPRMC,031353.600,A,4559.6740,N,12270.0700,W,111.44,290.51,091208,,,S*0
$GPRMC,031353.800,A,4559.6750,N,12270.0800,W,111.64,290.52,091208,,,S*0
$GPRMC,031353.000,A,4559.6800,N,12270.0900,W,111.33,290.28,091208,,,S*0
$GPRMC,031353.200,A,4559.6820,N,12270.1100,W,110.11,290.41,091208,,,S*0
$GPRMC,031353.400,A,4559.6870,N,12270.1200,W,106.98,290.68,091208,,,S*0
$GPRMC,031353.600,A,4559.6890,N,12270.1300,W,103.25,290.74,091208,,,S*0
$GPRMC,031353.800,A,4559.6890,N,12270.1500,W,100.28,291.31,091208,,,S*0
$GPRMC,031353.000,A,4559.6940,N,12270.1500,W,097.01,291.53,091208,,,S*0
$GPRMC,031353.200,A,4559.6950,N,12270.1600,W,093.65,291.60,091208,,,S*0
$GPRMC,031353.400,A,4559.7010,N,12270.1700,W,090.27,291.84,091208,,,S*0
$GPRMC,031353.600,A,4559.7030,N,12270.1700,W,086.90,291.98,091208,,,S*0
$GPRMC,031353.800,A,4559.7030,N,12270.1900,W,083.68,292.01,091208,,,S*0
$GPRMC,031353.000,A,4559.7080,N,12270.2000,W,080.85,291.74,091208,,,S*0
$GPRMC,031353.200,A,4559.7090,N,12270.2000,W,078.30,291.52,091208,,,S*0
$GPRMC,031353.400,A,4559.7090,N,12270.2100,W,075.50,290.99,091208,,,S*0
$GPRMC,031353.600,A,4559.7150,N,12270.2300,W,072.24,291.53,091208,,,S*0
$GPRMC,031353.800,A,4559.7160,N,12270.2300,W,068.84,292.26,091208,,,S*0
$GPRMC,031353.000,A,4559.7160,N,12270.2400,W,065.79,293.69,091208,,,S*0
$GPRMC,031353.200,A,4559.7210,N,12270.2500,W,063.95,295.61,091208,,,S*0
$GPRMC,031353.400,A,4559.7220,N,12270.2500,W,062.38,297.35,091208,,,S*0
$GPRMC,031353.600,A,4559.7220,N,12270.2500,W,061.61,300.40,091208,,,S*0
$GPRMC,031353.800,A,4559.7270,N,12270.2500,W,061.10,302.96,091208,,,S*0
$GPRMC,031353.000,A,4559.7290,N,12270.2700,W,060.52,306.07,091208,,,S*0
$GPRMC,031353.200,A,4559.7350,N,12270.2800,W,060.22,310.28,091208,,,S*0
$GPRMC,031353.400,A,4559.7360,N,12270.2800,W,060.04,314.78,091208,,,S*0
$GPRMC,031353.600,A,4559.7420,N,12270.2800,W,060.27,319.74,091208,,,S*0
$GPRMC,031353.800,A,4559.7480,N,12270.2800,W,060.83,324.22,091208,,,S*0
$GPRMC,031353.000,A,4559.7500,N,12270.2900,W,061.31,328.97,091208,,,S*0
$GPRMC,031353.200,A,4559.7550,N,12270.3100,W,061.59,333.49,091208,,,S*0
$GPRMC,031353.400,A,4559.7620,N,12270.3100,W,062.29,337.77,091208,,,S*0
$GPRMC,031353.600,A,4559.7640,N,12270.3100,W,063.07,340.84,091208,,,S*0
$GPRMC,031353.800,A,4559.7690,N,12270.3100,W,063.92,344.19,091208,,,S*0
$GPRMC,031353.000,A,4559.7760,N,12270.3100,W,064.83,347.49,091208,,,S*0
$GPRMC,031353.200,A,4559.7830,N,12270.3100,W,065.23,350.71,091208,,,S*0
$GPRMC,031353.400,A,4559.7840,N,12270.3100,W,066.19,353.05,091208,,,S*0
$GPRMC,031353.600,A,4559.7900,N,12270.3100,W,067.19,355.53,091208,,,S*0
$GPRMC,031353.800,A,4559.7970,N,12270.3100,W,067.13,359.27,091208,,,S*0
$GPRMC,031353.000,A,4559.8040,N,12270.3100,W,067.56,004.26,091208,,,S*0
$GPRMC,031353.200,A,4559.8100,N,12270.3100,W,067.29,007.90,091208,,,S*0
$GPRMC,031353.400,A,4559.8120,N,12270.3100,W,067.54,012.92,091208,,,S*0
$GPRMC,031353.600,A,4559.8170,N,12270.3100,W,067.82,016.67,091208,,,S*0
$GPRMC,031353.800,A,4559.8240,N,12270.3100,W,068.48,020.83,091208,,,S*0
$GPRMC,031353.000,A,4559.8260,N,12270.3100,W,069.17,025.30,091208,,,S*0
$GPRMC,031353.200,A,4559.8310,N,12270.2900,W,069.63,028.66,091208,,,S*0
$GPRMC,031353.400,A,4559.8380,N,12270.2800,W,070.91,032.09,091208,,,S*0
$GPRMC,031353.600,A,4559.8450,N,12270.2800,W,072.14,034.97,091208,,,S*0
$GPRMC,031353.800,A,4559.8460,N,12270.2800,W,071.51,038.56,091208,,,S*0
$GPRMC,031353.000,A,4559.8510,N,12270.2800,W,071.80,041.92,091208,,,S*0
$GPRMC,031353.200,A,4559.8530,N,12270.2800,W,071.29,043.86,091208,,,S*0
$GPRMC,031353.400,A,4559.8590,N,12270.2700,W,069.17,046.33,091208,,,S*0
$GPRMC,031353.600,A,4559.8600,N,12270.2500,W,067.76,050.09,091208,,,S*0
$GPRMC,031353.800,A,4559.8660,N,12270.2500,W,066.06,052.75,091208,,,S*0
$GPRMC,031353.000,A,4559.8670,N,12270.2500,W,064.97,055.92,091208,,,S*0
$GPRMC,031353.200,A,4559.8670,N,12270.2400,W,064.61,060.04,091208,,,S*0
$GPRMC,031353.400,A,4559.8730,N,12270.2300,W,063.67,064.09,091208,,,S*0
$GPRMC,031353.600,A,4559.8740,N,12270.2300,W,063.16,068.76,091208,,,S*0
$GPRMC,031353.800,A,4559.8740,N,12270.2300,W,063.23,073.58,091208,,,S*0
$GPRMC,031353.000,A,4559.8740,N,12270.2100,W,063.61,078.31,091208,,,S*0
$GPRMC,031353.200,A,4559.8740,N,12270.2000,W,064.07,082.55,091208,,,S*0
$GPRMC,031353.400,A,4559.8740,N,12270.2000,W,064.36,086.76,091208,,,S*0
$GPRMC,031353.600,A,4559.8740,N,12270.2000,W,064.52,091.92,091208,,,S*0
$GPRMC,031353.800,A,4559.8740,N,12270.1900,W,064.75,096.73,091208,,,S*0
$GPRMC,031353.000,A,4559.8740,N,12270.1700,W,065.01,101.12,091208,,,S*0
$GPRMC,031353.200,A,4559.8690,N,12270.1700,W,065.53,104.93,091208,,,S*0
$GPRMC,031353.400,A,4559.8680,N,12270.1700,W,065.03,109.31,091208,,,S*0
$GPRMC,031353.600,A,4559.8630,N,12270.1600,W,065.29,114.03,091208,,,S*0
$GPRMC,031353.800,A,4559.8610,N,12270.1400,W,065.32,118.92,091208,,,S*0
$GPRMC,031353.000,A,4559.8610,N,12270.1400,W,065.40,124.36,091208,,,S*0
$GPRMC,031353.200,A,4559.8560,N,12270.1400,W,065.82,128.55,091208,,,S*0
$GPRMC,031353.400,A,4559.8490,N,12270.1300,W,066.15,132.85,091208,,,S*0
$GPRMC,031353.600,A,4559.8470,N,12270.1200,W,066.38,137.38,091208,,,S*0
$GPRMC,031353.800,A,4559.8420,N,12270.1200,W,066.68,141.95,091208,,,S*0
$GPRMC,031353.000,A,4559.8350,N,12270.1200,W,067.20,145.90,091208,,,S*0
$GPRMC,031353.200,A,4559.8340,N,12270.1200,W,067.82,149.01,091208,,,S*0
$GPRMC,031353.400,A,4559.8280,N,12270.1200,W,068.41,149.81,091208,,,S*0
$GPRMC,031353.600,A,4559.8210,N,12270.1200,W,068.35,148.93,091208,,,S*0
$GPRMC,031353.800,A,4559.8200,N,12270.1000,W,066.24,146.88,091208,,,S*0
$GPRMC,031353.000,A,4559.8140,N,12270.0900,W,064.64,144.41,091208,,,S*0
$GPRMC,031353.200,A,4559.8080,N,12270.0900,W,063.49,141.24,091208,,,S*0
$GPRMC,031353.400,A,4559.8070,N,12270.0900,W,062.22,138.05,091208,,,S*0
$GPRMC,031353.600,A,4559.8010,N,12270.0900,W,061.42,134.28,091208,,,S*0
$GPRMC,031353.800,A,4559.8000,N,12270.0900,W,061.01,129.88,091208,,,S*0
$GPRMC,031353.000,A,4559.8000,N,12270.0800,W,060.40,125.47,091208,,,S*0
$GPRMC,031353.200,A,4559.8000,N,12270.0600,W,059.19,120.55,091208,,,S*0
$GPRMC,031353.400,A,4559.7940,N,12270.0600,W,058.62,114.77,091208,,,S*0
$GPRMC,031353.600,A,4559.7930,N,12270.0600,W,058.22,109.16,091208,,,S*0
$GPRMC,031353.800,A,4559.7930,N,12270.0500,W,058.24,104.14,091208,,,S*0
$GPRMC,031353.000,A,4559.7930,N,12270.0300,W,058.70,098.71,091208,,,S*0
$GPRMC,031353.200,A,4559.7930,N,12270.0300,W,058.76,094.18,091208,,,S*0
$GPRMC,031353.400,A,4559.7930,N,12270.0300,W,059.16,089.82,091208,,,S*0
$GPRMC,031353.600,A,4559.7930,N,12270.0200,W,059.35,085.10,091208,,,S*0
$GPRMC,031353.800,A,4559.7980,N,12270.0100,W,059.40,080.17,091208,,,S*0
$GPRMC,031353.000,A,4559.8000,N,12270.0100,W,059.71,075.46,091208,,,S*0
$GPRMC,031353.200,A,4559.8000,N,12270.0100,W,060.01,070.73,091208,,,S*0
$GPRMC,031353.400,A,4559.8000,N,12269.9900,W,060.24,065.59,091208,,,S*0
$GPRMC,031353.600,A,4559.8050,N,12269.9800,W,059.46,060.96,091208,,,S*0
$GPRMC,031353.800,A,4559.8060,N,12269.9800,W,059.62,055.82,091208,,,S*0
$GPRMC,031353.000,A,4559.8110,N,12269.9800,W,059.86,051.28,091208,,,S*0
$GPRMC,031353.200,A,4559.8130,N,12269.9800,W,060.22,047.01,091208,,,S*0
$GPRMC,031353.400,A,4559.8190,N,12269.9700,W,060.73,042.28,091208,,,S*0
$GPRMC,031353.600,A,4559.8260,N,12269.9500,W,061.12,037.30,091208,,,S*0
$GPRMC,031353.800,A,4559.8270,N,12269.9500,W,061.53,032.92,091208,,,S*0
$GPRMC,031353.000,A,4559.8320,N,12269.9500,W,062.14,028.91,091208,,,S*0
$GPRMC,031353.200,A,4559.8390,N,12269.9500,W,063.48,025.46,091208,,,S*0
$GPRMC,031353.400,A,4559.8400,N,12269.9500,W,063.91,021.77,091208,,,S*0
$GPRMC,031353.600,A,4559.8460,N,12269.9500,W,064.17,017.84,091208,,,S*0
$GPRMC,031353.800,A,4559.8530,N,12269.9500,W,064.76,014.29,091208,,,S*0
$GPRMC,031353.000,A,4559.8590,N,12269.9500,W,065.41,011.07,091208,,,S*0
$GPRMC,031353.200,A,4559.8600,N,12269.9500,W,066.57,008.20,091208,,,S*0
$GPRMC,031353.400,A,4559.8660,N,12269.9500,W,067.09,005.28,091208,,,S*0
$GPRMC,031353.600,A,4559.8730,N,12269.9500,W,067.90,002.44,091208,,,S*0
$GPRMC,031353.800,A,4559.8800,N,12269.9500,W,068.33,358.94,091208,,,S*0
$GPRMC,031353.000,A,4559.8870,N,12269.9500,W,068.77,355.34,091208,,,S*0
$GPRMC,031353.200,A,4559.8880,N,12269.9500,W,069.57,351.95,091208,,,S*0
$GPRMC,031353.400,A,4559.8930,N,12269.9500,W,070.22,349.13,091208,,,S*0
$GPRMC,031353.600,A,4559.9000,N,12269.9500,W,071.38,346.61,091208,,,S*0
$GPRMC,031353.800,A,4559.9070,N,12269.9500,W,071.82,345.23,091208,,,S*0
$GPRMC,031353.000,A,4559.9140,N,12269.9500,W,072.72,345.54,091208,,,S*0
$GPRMC,031353.200,A,4559.9210,N,12269.9500,W,073.43,347.25,091208,,,S*0
$GPRMC,031353.400,A,4559.9210,N,12269.9500,W,073.40,348.67,091208,,,S*0
$GPRMC,031353.600,A,4559.9270,N,12269.9500,W,071.12,349.09,091208,,,S*0
$GPRMC,031353.800,A,4559.9340,N,12269.9500,W,068.35,349.52,091208,,,S*0
$GPRMC,031353.000,A,4559.9410,N,12269.9500,W,065.16,350.00,091208,,,S*0
$GPRMC,031353.200,A,4559.9420,N,12269.9500,W,061.58,350.84,091208,,,S*0
$GPRMC,031353.400,A,4559.9470,N,12269.9500,W,057.84,351.27,091208,,,S*0
$GPRMC,031353.600,A,4559.9540,N,12269.9500,W,055.05,352.02,091208,,,S*0
$GPRMC,031353.800,A,4559.9550,N,12269.9500,W,052.82,353.18,091208,,,S*0
$GPRMC,031353.000,A,4559.9610,N,12269.9500,W,050.97,354.87,091208,,,S*0
$GPRMC,031353.200,A,4559.9620,N,12269.9500,W,049.88,358.73,091208,,,S*0
$GPRMC,031353.400,A,4559.9670,N,12269.9500,W,049.07,004.46,091208,,,S*0
$GPRMC,031353.600,A,4559.9690,N,12269.9500,W,047.75,010.82,091208,,,S*0
$GPRMC,031353.800,A,4559.9740,N,12269.9500,W,046.93,016.69,091208,,,S*0
$GPRMC,031353.000,A,4559.9810,N,12269.9500,W,046.77,022.41,091208,,,S*0
$GPRMC,031353.200,A,4559.9820,N,12269.9500,W,047.69,028.45,091208,,,S*0
$GPRMC,031353.400,A,4559.9820,N,12269.9500,W,048.64,033.66,091208,,,S*0
$GPRMC,031353.600,A,4559.9870,N,12269.9500,W,049.02,039.67,091208,,,S*0
$GPRMC,031353.800,A,4559.9880,N,12269.9500,W,048.78,045.03,091208,,,S*0
$GPRMC,031353.000,A,4559.9940,N,12269.9500,W,049.40,052.50,091208,,,S*0
$GPRMC,031353.200,A,4559.9950,N,12269.9400,W,049.88,058.20,091208,,,S*0
$GPRMC,031353.400,A,4559.9950,N,12269.9300,W,050.75,064.77,091208,,,S*0
$GPRMC,031353.600,A,4559.9950,N,12269.9300,W,051.12,071.70,091208,,,S*0
$GPRMC,031353.800,A,4559.9950,N,12269.9300,W,051.31,077.90,091208,,,S*0
$GPRMC,031353.000,A,4559.9950,N,12269.9100,W,051.67,084.12,091208,,,S*0
$GPRMC,031353.200,A,4559.9950,N,12269.9000,W,052.12,090.13,091208,,,S*0
$GPRMC,031353.400,A,4559.9950,N,12269.9000,W,053.47,095.00,091208,,,S*0
$GPRMC,031353.600,A,4559.9950,N,12269.9000,W,054.69,098.79,091208,,,S*0
$GPRMC,031353.800,A,4559.9950,N,12269.9000,W,055.56,102.46,091208,,,S*0
$GPRMC,031353.000,A,4559.9950,N,12269.8900,W,056.34,105.70,091208,,,S*0
$GPRMC,031353.200,A,4559.9900,N,12269.8700,W,056.78,109.86,091208,,,S*0
$GPRMC,031353.400,A,4559.9880,N,12269.8700,W,057.48,112.47,091208,,,S*0
$GPRMC,031353.600,A,4559.9880,N,12269.8700,W,059.10,114.06,091208,,,S*0
$GPRMC,031353.800,A,4559.9830,N,12269.8600,W,060.05,115.33,091208,,,S*0
$GPRMC,031353.000,A,4559.9810,N,12269.8400,W,060.94,115.82,091208,,,S*0
$GPRMC,031353.200,A,4559.9810,N,12269.8400,W,061.77,116.10,091208,,,S*0
$GPRMC,031353.400,A,4559.9760,N,12269.8400,W,062.81,115.84,091208,,,S*0
$GPRMC,031353.600,A,4559.9740,N,12269.8300,W,063.87,115.45,091208,,,S*0
$GPRMC,031353.800,A,4559.9740,N,12269.8200,W,064.51,115.05,091208,,,S*0
$GPRMC,031353.000,A,4559.9690,N,12269.8200,W,065.43,114.77,091208,,,S*0
$GPRMC,031353.200,A,4559.9680,N,12269.8200,W,066.36,114.15,091208,,,S*0
$GPRMC,031353.400,A,4559.9680,N,12269.8000,W,067.25,113.49,091208,,,S*0
$GPRMC,031353.600,A,4559.9620,N,12269.7900,W,068.17,112.96,091208,,,S*0
$GPRMC,031353.800,A,4559.9610,N,12269.7900,W,068.85,111.69,091208,,,S*0
$GPRMC,031353.000,A,4559.9610,N,12269.7900,W,069.61,110.74,091208,,,S*0
$GPRMC,031353.200,A,4559.9610,N,12269.7800,W,070.52,109.88,091208,,,S*0
$GPRMC,031353.400,A,4559.9550,N,12269.7600,W,071.50,108.61,091208,,,S*0
$GPRMC,031353.600,A,4559.9540,N,12269.7600,W,072.08,107.03,091208,,,S*0
$GPRMC,031353.800,A,4559.9540,N,12269.7600,W,073.02,104.72,091208,,,S*0
$GPRMC,031353.000,A,4559.9540,N,12269.7500,W,073.71,102.75,091208,,,S*0
$GPRMC,031353.200,A,4559.9540,N,12269.7300,W,074.37,101.41,091208,,,S*0
$GPRMC,031353.400,A,4559.9540,N,12269.7300,W,075.25,099.83,091208,,,S*0
$GPRMC,031353.600,A,4559.9480,N,12269.7200,W,076.02,098.16,091208,,,S*0
$GPRMC,031353.800,A,4559.9470,N,12269.7100,W,076.41,096.91,091208,,,S*0
$GPRMC,031353.000,A,4559.9470,N,12269.7100,W,077.27,095.77,091208,,,S*0
$GPRMC,031353.200,A,4559.9470,N,12269.6900,W,078.09,095.16,091208,,,S*0
$GPRMC,031353.400,A,4559.9470,N,12269.6800,W,078.87,093.99,091208,,,S*0
$GPRMC,031353.600,A,4559.9470,N,12269.6800,W,079.69,093.69,091208,,,S*0
$GPRMC,031353.800,A,4559.9470,N,12269.6700,W,080.20,093.82,091208,,,S*0
$GPRMC,031353.000,A,4559.9470,N,12269.6500,W,080.77,093.58,091208,,,S*0
$GPRMC,031353.200,A,4559.9470,N,12269.6500,W,081.30,093.74,091208,,,S*0
$GPRMC,031353.400,A,4559.9470,N,12269.6400,W,082.23,094.54,091208,,,S*0
$GPRMC,031353.600,A,4559.9470,N,12269.6300,W,082.77,095.35,091208,,,S*0
$GPRMC,031353.800,A,4559.9470,N,12269.6300,W,083.28,096.09,091208,,,S*0
$GPRMC,031353.000,A,4559.9470,N,12269.6100,W,084.14,097.21,091208,,,S*0
$GPRMC,031353.200,A,4559.9410,N,12269.6000,W,084.66,098.56,091208,,,S*0
$GPRMC,031353.400,A,4559.9410,N,12269.6000,W,084.66,100.40,091208,,,S*0
$GPRMC,031353.600,A,4559.9410,N,12269.5800,W,085.56,100.85,091208,,,S*0
$GPRMC,031353.800,A,4559.9410,N,12269.5700,W,086.53,101.80,091208,,,S*0
$GPRMC,031353.000,A,4559.9350,N,12269.5700,W,087.25,102.26,091208,,,S*0
$GPRMC,031353.200,A,4559.9340,N,12269.5500,W,087.16,103.29,091208,,,S*0
$GPRMC,031353.400,A,4559.9340,N,12269.5400,W,087.40,104.84,091208,,,S*0
$GPRMC,031353.600,A,4559.9280,N,12269.5400,W,088.10,106.92,091208,,,S*0
$GPRMC,031353.800,A,4559.9270,N,12269.5300,W,088.51,107.51,091208,,,S*0
$GPRMC,031353.000,A,4559.9270,N,12269.5100,W,088.85,109.14,091208,,,S*0
$GPRMC,031353.200,A,4559.9210,N,12269.5100,W,089.59,110.87,091208,,,S*0
$GPRMC,031353.400,A,4559.9200,N,12269.5000,W,090.01,112.61,091208,,,S*0
$GPRMC,031353.600,A,4559.9200,N,12269.4900,W,090.34,113.68,091208,,,S*0
$GPRMC,031353.800,A,4559.9140,N,12269.4700,W,091.19,113.90,091208,,,S*0
$GPRMC,031353.000,A,4559.9120,N,12269.4600,W,091.81,114.84,091208,,,S*0
$GPRMC,031353.200,A,4559.9070,N,12269.4600,W,091.87,116.49,091208,,,S*0
$GPRMC,031353.400,A,4559.9000,N,12269.4400,W,091.80,118.06,091208,,,S*0
$GPRMC,031353.600,A,4559.9000,N,12269.4300,W,092.38,119.72,091208,,,S*0
$GPRMC,031353.800,A,4559.8930,N,12269.4300,W,093.06,121.09,091208,,,S*0
$GPRMC,031353.000,A,4559.8920,N,12269.4100,W,093.56,121.94,091208,,,S*0
$GPRMC,031353.200,A,4559.8860,N,12269.4000,W,094.00,123.28,091208,,,S*0
$GPRMC,031353.400,A,4559.8790,N,12269.4000,W,094.59,124.51,091208,,,S*0
$GPRMC,031353.600,A,4559.8790,N,12269.4000,W,095.31,126.20,091208,,,S*0
$GPRMC,031353.800,A,4559.8720,N,12269.3900,W,095.64,127.43,091208,,,S*0
$GPRMC,031353.000,A,4559.8660,N,12269.3800,W,095.99,128.53,091208,,,S*0
$GPRMC,031353.200,A,4559.8640,N,12269.3800,W,096.45,129.83,091208,,,S*0
$GPRMC,031353.400,A,4559.8580,N,12269.3600,W,097.22,130.49,091208,,,S*0
$GPRMC,031353.600,A,4559.8510,N,12269.3500,W,097.60,131.05,091208,,,S*0
$GPRMC,031353.800,A,4559.8440,N,12269.3400,W,097.76,131.58,091208,,,S*0
$GPRMC,031353.000,A,4559.8430,N,12269.3200,W,098.24,132.18,091208,,,S*0
$GPRMC,031353.200,A,4559.8370,N,12269.3200,W,098.70,132.76,091208,,,S*0
$GPRMC,031353.400,A,4559.8300,N,12269.3200,W,099.07,133.59,091208,,,S*0
$GPRMC,031353.600,A,4559.8240,N,12269.3100,W,099.39,134.26,091208,,,S*0
$GPRMC,031353.800,A,4559.8170,N,12269.3000,W,100.16,134.98,091208,,,S*0
$GPRMC,031353.000,A,4559.8100,N,12269.3000,W,100.23,135.28,091208,,,S*0
$GPRMC,031353.200,A,4559.8090,N,12269.2800,W,100.42,135.86,091208,,,S*0
$GPRMC,031353.400,A,4559.8030,N,12269.2700,W,101.12,136.54,091208,,,S*0
$GPRMC,031353.600,A,4559.7970,N,12269.2700,W,101.53,136.94,091208,,,S*0
$GPRMC,031353.800,A,4559.7900,N,12269.2700,W,102.13,137.13,091208,,,S*0
$GPRMC,031353.000,A,4559.7830,N,12269.2500,W,102.45,137.47,091208,,,S*0
$GPRMC,031353.200,A,4559.7760,N,12269.2400,W,102.68,137.84,091208,,,S*0
$GPRMC,031353.400,A,4559.7690,N,12269.2400,W,103.27,137.99,091208,,,S*0
$GPRMC,031353.600,A,4559.7620,N,12269.2300,W,103.76,137.91,091208,,,S*0
$GPRMC,031353.800,A,4559.7550,N,12269.2100,W,104.00,138.21,091208,,,S*0
$GPRMC,031353.000,A,4559.7550,N,12269.2100,W,104.61,138.77,091208,,,S*0
$GPRMC,031353.200,A,4559.7490,N,12269.2100,W,104.98,139.30,091208,,,S*0
$GPRMC,031353.400,A,4559.7420,N,12269.2000,W,105.22,139.37,091208,,,S*0
$GPRMC,031353.600,A,4559.7350,N,12269.1900,W,105.36,139.88,091208,,,S*0
$GPRMC,031353.800,A,4559.7290,N,12269.1900,W,105.72,140.86,091208,,,S*0
$GPRMC,031353.000,A,4559.7220,N,12269.1700,W,106.11,141.73,091208,,,S*0
$GPRMC,031353.200,A,4559.7150,N,12269.1600,W,106.55,142.55,091208,,,S*0
$GPRMC,031353.400,A,4559.7030,N,12269.1600,W,106.95,142.67,091208,,,S*0
$GPRMC,031353.600,A,4559.6950,N,12269.1600,W,107.33,142.80,091208,,,S*0
$GPRMC,031353.800,A,4559.6880,N,12269.1400,W,107.71,142.92,091208,,,S*0
$GPRMC,031353.000,A,4559.6810,N,12269.1300,W,107.87,143.40,091208,,,S*0
$GPRMC,031353.200,A,4559.6740,N,12269.1300,W,108.25,143.81,091208,,,S*0
$GPRMC,031353.400,A,4559.6670,N,12269.1300,W,108.77,144.19,091208,,,S*0
$GPRMC,031353.600,A,4559.6600,N,12269.1200,W,109.16,144.38,091208,,,S*0
$GPRMC,031353.800,A,4559.6540,N,12269.1000,W,109.26,144.13,091208,,,S*0
$GPRMC,031353.000,A,4559.6470,N,12269.1000,W,109.85,143.84,091208,,,S*0
$GPRMC,031353.200,A,4559.6400,N,12269.1000,W,110.24,143.80,091208,,,S*0
$GPRMC,031353.400,A,4559.6330,N,12269.0900,W,110.30,143.76,091208,,,S*0
$GPRMC,031353.600,A,4559.6260,N,12269.0700,W,109.95,143.66,091208,,,S*0
$GPRMC,031353.800,A,4559.6200,N,12269.0700,W,109.82,143.97,091208,,,S*0
$GPRMC,031353.000,A,4559.6130,N,12269.0700,W,109.90,143.21,091208,,,S*0
$GPRMC,031353.200,A,4559.6060,N,12269.0600,W,109.28,142.17,091208,,,S*0
$GPRMC,031353.400,A,4559.5990,N,12269.0500,W,108.52,142.78,091208,,,S*0
$GPRMC,031353.600,A,4559.5920,N,12269.0500,W,108.08,142.61,091208,,,S*0
$GPRMC,031353.800,A,4559.5860,N,12269.0300,W,105.19,141.92,091208,,,S*0
$GPRMC,031353.000,A,4559.5790,N,12269.0200,W,101.67,141.76,091208,,,S*0
$GPRMC,031353.200,A,4559.5720,N,12269.0200,W,098.31,142.04,091208,,,S*0
$GPRMC,031353.400,A,4559.5650,N,12269.0200,W,095.33,141.18,091208,,,S*0
$GPRMC,031353.600,A,4559.5580,N,12269.0000,W,093.86,139.95,091208,,,S*0
$GPRMC,031353.800,A,4559.5570,N,12268.9900,W,092.23,138.05,091208,,,S*0
$GPRMC,031353.000,A,4559.5520,N,12268.9900,W,090.18,136.09,091208,,,S*0
$GPRMC,031353.200,A,4559.5450,N,12268.9900,W,088.31,133.58,091208,,,S*0
$GPRMC,031353.400,A,4559.5440,N,12268.9800,W,087.52,131.43,091208,,,S*0
$GPRMC,031353.600,A,4559.5380,N,12268.9700,W,087.18,128.26,091208,,,S*0
$GPRMC,031353.800,A,4559.5360,N,12268.9700,W,087.08,125.11,091208,,,S*0
$GPRMC,031353.000,A,4559.5310,N,12268.9500,W,087.36,122.73,091208,,,S*0
$GPRMC,031353.200,A,4559.5290,N,12268.9400,W,087.47,119.20,091208,,,S*0
$GPRMC,031353.400,A,4559.5290,N,12268.9400,W,087.73,116.15,091208,,,S*0
$GPRMC,031353.600,A,4559.5230,N,12268.9300,W,088.56,113.43,091208,,,S*0
$GPRMC,031353.800,A,4559.5220,N,12268.9100,W,088.48,112.01,091208,,,S*0
$GPRMC,031353.000,A,4559.5170,N,12268.9100,W,086.96,110.65,091208,,,S*0
$GPRMC,031353.200,A,4559.5160,N,12268.9000,W,084.08,110.76,091208,,,S*0
$GPRMC,031353.400,A,4559.5160,N,12268.8900,W,081.60,112.15,091208,,,S*0
$GPRMC,031353.600,A,4559.5100,N,12268.8900,W,080.81,115.35,091208,,,S*0
$GPRMC,031353.800,A,4559.5090,N,12268.8700,W,080.20,118.69,091208,,,S*0
$GPRMC,031353.000,A,4559.5030,N,12268.8600,W,079.50,121.73,091208,,,S*0
$GPRMC,031353.200,A,4559.5020,N,12268.8600,W,078.46,124.69,091208,,,S*0
$GPRMC,031353.400,A,4559.4960,N,12268.8600,W,078.01,128.68,091208,,,S*0
$GPRMC,031353.600,A,4559.4890,N,12268.8400,W,077.91,132.73,091208,,,S*0
$GPRMC,031353.800,A,4559.4880,N,12268.8300,W,077.98,136.57,091208,,,S*0
$GPRMC,031353.000,A,4559.4830,N,12268.8300,W,078.71,139.04,091208,,,S*0
$GPRMC,031353.200,A,4559.4760,N,12268.8300,W,079.21,141.86,091208,,,S*0
$GPRMC,031353.400,A,4559.4690,N,12268.8300,W,079.30,144.90,091208,,,S*0
$GPRMC,031353.600,A,4559.4620,N,12268.8200,W,078.76,147.98,091208,,,S*0
$GPRMC,031353.800,A,4559.4620,N,12268.8000,W,077.53,150.82,091208,,,S*0
$GPRMC,031353.000,A,4559.4560,N,12268.8000,W,075.41,153.25,091208,,,S*0
$GPRMC,031353.200,A,4559.4490,N,12268.8000,W,073.15,155.56,091208,,,S*0
$GPRMC,031353.400,A,4559.4420,N,12268.8000,W,070.35,156.49,091208,,,S*0
$GPRMC,031353.600,A,4559.4410,N,12268.8000,W,067.39,156.77,091208,,,S*0
$GPRMC,031353.800,A,4559.4350,N,12268.8000,W,064.27,156.44,091208,,,S*0
$GPRMC,031353.000,A,4559.4280,N,12268.7900,W,061.58,157.42,091208,,,S*0
$GPRMC,031353.200,A,4559.4260,N,12268.7700,W,059.61,159.80,091208,,,S*0
$GPRMC,031353.400,A,4559.4210,N,12268.7700,W,057.13,163.10,091208,,,S*0
$GPRMC,031353.600,A,4559.4200,N,12268.7700,W,054.65,166.60,091208,,,S*0
$GPRMC,031353.800,A,4559.4150,N,12268.7700,W,053.90,171.88,091208,,,S*0
$GPRMC,031353.000,A,4559.4080,N,12268.7700,W,053.75,177.68,091208,,,S*0
$GPRMC,031353.200,A,4559.4060,N,12268.7700,W,053.95,182.81,091208,,,S*0
$GPRMC,031353.400,A,4559.4010,N,12268.7700,W,054.15,187.98,091208,,,S*0
$GPRMC,031353.600,A,4559.3940,N,12268.7700,W,054.76,193.36,091208,,,S*0
$GPRMC,031353.800,A,4559.3930,N,12268.7700,W,055.25,198.37,091208,,,S*0
$GPRMC,031353.000,A,4559.3870,N,12268.7900,W,055.22,203.39,091208,,,S*0
$GPRMC,031353.200,A,4559.3860,N,12268.8000,W,055.70,208.98,091208,,,S*0
$GPRMC,031353.400,A,4559.3800,N,12268.8000,W,056.59,214.22,091208,,,S*0
$GPRMC,031353.600,A,4559.3790,N,12268.8000,W,056.77,219.34,091208,,,S*0
$GPRMC,031353.800,A,4559.3730,N,12268.8000,W,057.06,224.09,091208,,,S*0
$GPRMC,031353.000,A,4559.3730,N,12268.8000,W,057.60,228.86,091208,,,S*0
$GPRMC,031353.200,A,4559.3730,N,12268.8000,W,058.48,233.54,091208,,,S*0
$GPRMC,031353.400,A,4559.3670,N,12268.8100,W,059.35,238.19,091208,,,S*0
$GPRMC,031353.600,A,4559.3660,N,12268.8300,W,059.88,242.50,091208,,,S*0
$GPRMC,031353.800,A,4559.3660,N,12268.8300,W,060.43,245.43,091208,,,S*0
$GPRMC,031353.000,A,4559.3610,N,12268.8300,W,061.34,249.03,091208,,,S*0
$GPRMC,031353.200,A,4559.3600,N,12268.8400,W,062.08,252.40,091208,,,S*0
$GPRMC,031353.400,A,4559.3600,N,12268.8500,W,063.00,255.36,091208,,,S*0
$GPRMC,031353.600,A,4559.3600,N,12268.8500,W,063.92,256.89,091208,,,S*0
$GPRMC,031353.800,A,4559.3600,N,12268.8500,W,064.67,259.59,091208,,,S*0
$GPRMC,031353.000,A,4559.3600,N,12268.8700,W,065.15,262.63,091208,,,S*0
$GPRMC,031353.200,A,4559.3600,N,12268.8800,W,066.06,265.87,091208,,,S*0
$GPRMC,031353.400,A,4559.3600,N,12268.8800,W,066.99,269.06,091208,,,S*0
$GPRMC,031353.600,A,4559.3600,N,12268.9000,W,067.39,271.86,091208,,,S*0
$GPRMC,031353.800,A,4559.3600,N,12268.9100,W,068.06,274.28,091208,,,S*0
$GPRMC,031353.000,A,4559.3600,N,12268.9100,W,069.16,276.52,091208,,,S*0
$GPRMC,031353.200,A,4559.3600,N,12268.9100,W,069.96,278.26,091208,,,S*0
$GPRMC,031353.400,A,4559.3600,N,12268.9200,W,070.89,279.78,091208,,,S*0
